City_ID,City,Country,Max Temp,Current Weather Description,Lat,Lng,Hotel Name
1,Alyangula,AU,84.07,overcast clouds,-13.8483,136.4192,Groote Eylandt Lodge
2,Port Elizabeth,ZA,73.69,few clouds,-33.918,25.5701,39 On Nile Guest House
3,Souillac,MU,80.98,moderate rain,-20.5167,57.5167,Shanti Maurice Resort & Spa
5,Vaini,TO,80.87,light rain,-21.2,-175.2,Keleti Beach Resort
6,Ribeira Grande,PT,63.0,few clouds,38.5167,-28.7,Quinta da Meia Eira
7,East London,ZA,72.54,scattered clouds,-33.0153,27.9116,Tu Casa
9,Busselton,AU,73.04,overcast clouds,-33.65,115.3333,Observatory Guest House
10,San Quintin,MX,53.31,clear sky,30.4833,-115.95,Don Eddie's Landing
12,Rikitea,PF,77.36,light rain,-23.1203,-134.9692,People ThankYou
13,Hermanus,ZA,70.81,broken clouds,-34.4187,19.2345,Misty Waves Boutique Hotel
15,Cape Town,ZA,74.26,few clouds,-33.9258,18.4232,Southern Sun Waterfront Cape Town
17,Sao Filipe,CV,76.14,clear sky,14.8961,-24.4956,Hotel Xaguate
18,Hobart,AU,52.05,scattered clouds,-42.8794,147.3294,Mantra on Collins Hobart
19,New Norfolk,AU,51.71,clear sky,-42.7826,147.0587,The Shingles Riverside Cottages
20,Dickinson,US,42.98,mist,29.4608,-95.0513,Hampton Inn & Suites Houston/League City
21,Reforma,MX,77.76,few clouds,18.1,-91.0167,
28,Redcliffe,AU,70.99,clear sky,-27.2307,153.0973,Redvue Apartments
29,Laguna,US,45.1,clear sky,38.421,-121.4238,"Holiday Inn Express & Suites Elk Grove Central - Hwy 99, an IHG Hotel"
30,Saint-Philippe,RE,79.11,heavy intensity rain,-21.3585,55.7679,"Chambres d'hôte ""La Trinité"""
31,Ushuaia,AR,46.02,overcast clouds,-54.8,-68.3,Albatross Hotel
32,Mataura,NZ,53.47,overcast clouds,-46.1927,168.8643,Ellie's Villa
34,Punta Arenas,CL,48.31,overcast clouds,-53.15,-70.9167,Hotel Hain
36,Bredasdorp,ZA,74.52,overcast clouds,-34.5322,20.0403,Bredasdorp Country Manor
37,Karratha,AU,83.21,overcast clouds,-20.7377,116.8463,ibis Styles Karratha
38,Ponta Do Sol,PT,71.01,overcast clouds,32.6667,-17.1,Hotel do Campo
39,Mar Del Plata,AR,75.09,moderate rain,-38.0023,-57.5575,Gran Hotel Mar del Plata
40,Samarai,PG,80.35,overcast clouds,-10.6167,150.6667,Nuli Sapi
41,Khammam,IN,74.1,broken clouds,17.25,80.15,Hotel Vishnu Residency
43,Lasa,IT,49.91,overcast clouds,46.6166,10.7002,Pension Feldgärtenhof
46,Rio Brilhante,BR,75.97,moderate rain,-21.8019,-54.5464,Hotel Cattani
47,Marawi,PH,68.65,overcast clouds,7.9986,124.2928,Derogongan Residence
48,Maumere,ID,79.41,overcast clouds,-8.6199,122.2111,Sylvia Hotel
49,Honiara,SB,77.54,heavy intensity rain,-9.4333,159.95,Heritage Park Hotel
51,Puerto El Triunfo,SV,84.36,clear sky,13.2833,-88.55,Hotel Jardin
52,Sabang,ID,82.56,broken clouds,5.8933,95.3214,Hotel Citra
53,Lima,PE,74.14,clear sky,-12.0432,-77.0282,Gran Hotel Bolivar Lima
55,Soyaux,FR,45.57,overcast clouds,45.65,0.2,Mercure Angoulême - Hôtel de France
56,Carnarvon,AU,80.67,clear sky,-24.8667,113.6333,Hospitality Carnarvon
57,Albany,US,42.75,light rain,42.6001,-73.9662,
58,Raudeberg,NO,42.87,light rain,61.9875,5.1352,Nordre Silda.
59,Ancud,CL,69.22,overcast clouds,-41.8697,-73.8203,Hotel Arena Gruesa
60,Bambous Virieux,MU,80.85,moderate rain,-20.3428,57.7575,Casa Tia Villa
63,Thaba Nchu,ZA,73.18,light rain,-29.2093,26.839,Real Time Guest House
64,Ascension,US,73.99,thunderstorm with heavy rain,30.2169,-90.9001,Highland Inn
65,Bluff,NZ,53.8,overcast clouds,-46.6,168.3333,Bluff Homestead - Guesthouse & Campervan Park
66,Madaoua,NE,84.29,scattered clouds,14.073,5.96,
67,Kapaa,US,68.32,broken clouds,22.0752,-159.319,Sheraton Kauai Coconut Beach Resort
69,Coahuayana,MX,76.48,clear sky,18.7333,-103.6833,El rranchito michuacan de ocampos
70,Hithadhoo,MV,82.08,overcast clouds,-0.6,73.0833,Scoop Guest House
71,La Rioja,ES,59.31,overcast clouds,42.25,-2.5,Casa Concejos
75,Cessnock,AU,66.22,overcast clouds,-32.8333,151.35,Hunter Valley Motel
76,Nouadhibou,MR,84.18,dust,20.931,-17.0347,El Medina
79,Mahebourg,MU,80.89,broken clouds,-20.4081,57.7,Shandrani Beachcomber Resort & Spa
80,Tres Arroyos,AR,88.23,overcast clouds,-38.3739,-60.2798,Habitacion Triple con baño y entrada privada
81,Atuona,PF,78.04,clear sky,-9.8,-139.0333,Villa Enata
84,Wynyard,AU,54.95,clear sky,-41.0,145.7167,Burnie Airport Motel
85,Sibolga,ID,75.9,overcast clouds,1.7427,98.7792,Hotel Syariah CN Darussalam
86,Rio Bueno,CL,68.11,overcast clouds,-40.3167,-72.9667,Hostal Caulle
87,Faanui,PF,79.68,light rain,-16.4833,-151.75,Bora-Bora Pearl Beach Resort & Spa
92,Kirakira,SB,78.87,moderate rain,-10.4544,161.9205,SanBiz Lodge
93,Lagoa,PT,57.56,overcast clouds,39.05,-27.9833,Casa Das Faias
95,Gondanglegi,ID,74.98,light rain,-7.7479,112.0132,pondok pesantren mamba'ul 'ulum selo rejo
96,Airai,TL,60.51,moderate rain,-8.9266,125.4092,
98,Fayaoue,NC,81.5,light rain,-20.65,166.5333,Chez Dydyce Guesthouse
99,San Patricio,US,42.89,overcast clouds,28.017,-97.5169,"Motel 6 Sinton, TX"
100,Pilar,BR,89.53,overcast clouds,-9.5972,-35.9567,Pousada e churrascaria Manguaba
101,Isangel,VU,78.84,light rain,-19.55,169.2667,Tanna Lodge
102,Oranjestad,AW,82.35,broken clouds,12.524,-70.027,Divi Village Golf & Beach Resort
103,Halifax,CA,46.0,fog,44.6453,-63.5724,Hotel Halifax
104,Puerto Del Rosario,ES,73.15,clear sky,28.5004,-13.8627,Hotel JM Puerto del Rosario
105,Tonstad,NO,44.24,overcast clouds,58.6626,6.7169,"Tonstadli Ferie, Kurs og Misjonssenter"
107,Christchurch,NZ,58.95,moderate rain,-43.5333,172.6333,The George
111,Riyadh,SA,73.54,clear sky,24.6877,46.7219,"InterContinental Riyadh, an IHG Hotel"
112,Kaitangata,NZ,55.92,light rain,-46.2817,169.8464,Kaitangata Motor Camp
113,Arraial Do Cabo,BR,82.36,light intensity drizzle,-22.9661,-42.0278,Pousada Porto Praia
116,Mundo Nuevo,MX,76.64,clear sky,18.7,-95.5,
119,Meulaboh,ID,75.63,overcast clouds,4.1363,96.1285,Kost Pria
120,Kudahuvadhoo,MV,82.27,few clouds,2.6708,72.8944,Niyama Private Islands Maldives
121,Madang,PG,74.71,moderate rain,-5.2246,145.7966,Comfort Inn Hotel
122,Argentan,FR,47.97,overcast clouds,48.75,-0.0167,Hostellerie De La Renaissance
123,Robertsonpet,IN,76.1,overcast clouds,12.9667,78.2833,Morritt Farms
125,Chuy,UY,87.12,few clouds,-33.6971,-53.4616,Nuevo Hotel Plaza
126,Saint-Leu,RE,78.57,moderate rain,-21.15,55.2833,La Caz Oceane
127,Puerto Ayora,EC,80.56,clear sky,-0.7393,-90.3518,Finch Bay Galapagos Hotel
128,Port Alfred,ZA,73.0,light rain,-33.5906,26.891,The Halyards Hotel
130,Georgetown,MY,82.89,few clouds,5.4112,100.3354,Cititel Penang
132,Luderitz,,72.88,clear sky,-26.6481,15.1594,LÜDERITZ NEST HOTEL
133,Castro,BR,71.67,overcast clouds,-24.7911,-50.0119,CHACARA BAILLY
135,Lata,PT,61.07,overcast clouds,40.1629,-8.3327,Casa Maquia
136,Martapura,ID,77.09,overcast clouds,-3.4167,114.85,Montana Hotel Syariah
137,Saltpond,GH,85.28,few clouds,5.2091,-1.0606,Mfantseman Beach Resort
138,Kahului,US,70.84,clear sky,20.8947,-156.47,Maui Seaside Hotel
141,Vanimo,PG,76.55,overcast clouds,-2.6741,141.3028,Vahmoneh Lodge Vanimo
142,Denpasar,ID,82.06,scattered clouds,-8.65,115.2167,ASTON Denpasar Hotel & Convention Center
144,Chirongui,YT,85.93,light rain,-12.9319,45.1483,La Villa Mahatsara
145,Puerto Narino,CO,76.95,moderate rain,-3.7703,-70.3831,Eware Refugio Amazonico
147,Cidreira,BR,82.8,clear sky,-30.1811,-50.2056,Hotel Castelo
148,Ariquemes,BR,77.11,overcast clouds,-9.9133,-63.0408,Hotel Sol Nascente - Ariquemes - RO
149,Baoma,CN,42.73,scattered clouds,31.4859,106.1128,Center Restaurant
151,Tonder,DK,45.01,overcast clouds,54.9331,8.8667,Filsø Hotel (Bowler Inn)
153,Kerema,PG,78.21,overcast clouds,-7.9631,145.7785,Frena Lodge
154,Acarau,BR,86.67,moderate rain,-2.8856,-40.12,castelo pizzaria
155,Saint-Denis,FR,47.79,overcast clouds,48.9167,2.3333,ibis budget Paris Porte de Montmartre
156,Vila Franca Do Campo,PT,67.19,scattered clouds,37.7167,-25.4333,Pestana Bahia Praia
157,Hilo,US,68.4,clear sky,19.7297,-155.09,Hilo Hawaiian Hotel
159,Manyana,BW,83.48,overcast clouds,-23.4,21.7167,
161,Lompoc,US,52.12,clear sky,34.6391,-120.4579,"Holiday Inn Express Lompoc, an IHG Hotel"
162,Te Anau,NZ,49.03,overcast clouds,-45.4167,167.7167,Kingsgate Hotel Te Anau
163,Pisco,PE,72.01,clear sky,-13.7,-76.2167,Hotel San Isidro Oficial
164,Tahoua,NE,84.18,scattered clouds,14.8888,5.2692,Bungalows Guesthouse
165,Matara,LK,76.28,clear sky,5.9485,80.5353,Amaloh Boutique Resort
166,Padrauna,IN,61.0,overcast clouds,26.9025,83.9819,Hotel Sky Lark
169,Alofi,NU,76.89,overcast clouds,-19.0595,-169.9187,Taloa Heights
171,Pitimbu,BR,86.59,overcast clouds,-7.4706,-34.8086,Reserva do Abiaí
172,Carauari,BR,76.15,overcast clouds,-4.8828,-66.8958,Hotel Fellip
173,Fortuna,US,46.92,overcast clouds,40.5982,-124.1573,Super 8 by Wyndham Fortuna
177,Oranjemund,,70.12,clear sky,-28.55,16.4333,The Fisherman's Cove
178,Tignere,CM,82.53,few clouds,7.3667,12.65,SADECK
180,Codrington,AU,58.86,scattered clouds,-38.2667,141.9667,Codrington Gardens Bed And Breakfast
183,Hukuntsi,BW,83.3,broken clouds,-24.0,21.75,Entabeni Hotel
186,Kavieng,PG,81.19,overcast clouds,-2.5744,150.7967,Nusa Island Retreat
187,Port Moresby,PG,72.82,scattered clouds,-9.4431,147.1797,Lamana Hotel (Port Moresby)
189,Constitucion,CL,67.53,clear sky,-35.3333,-72.4167,Hotel Boutique Las Azucenas
190,Shakawe,BW,73.09,light rain,-18.3667,21.85,Ditlhapi Guest House
192,Katsuura,JP,46.42,overcast clouds,35.1333,140.3,Katsuura Hotel Mikazuki
193,Mount Gambier,AU,57.11,overcast clouds,-37.8333,140.7667,The Commodore
194,Mareeba,AU,75.92,light rain,-17.0,145.4333,Trinity Plains Tourist Park
195,Paita,PE,79.36,broken clouds,-5.0892,-81.1144,Hotel Náutico de Paita
196,Geraldton,AU,73.81,clear sky,-28.7667,114.6,Broadwater Mariner Resort
197,Necochea,AR,75.04,light rain,-38.5473,-58.7368,dyd -mar Hotel
198,San Cristobal,VE,75.38,overcast clouds,7.7669,-72.225,Posada Villaven C.A.
200,Santiago Del Estero,AR,88.18,scattered clouds,-27.7951,-64.2615,Apartamentos Castelli 90
202,Bethel,US,43.25,light rain,41.3712,-73.414,Courtyard by Marriott Danbury
203,Port Blair,IN,78.84,haze,11.6667,92.75,"Welcomhotel By ITC Hotels, Bay Island, Port Blair"
205,Tuatapere,NZ,53.82,overcast clouds,-46.1333,167.6833,Ron and Tony's Bed & Breakfast
206,Raxaul,IN,63.66,overcast clouds,26.9833,84.85,R S Residency
210,Paracuru,BR,87.82,overcast clouds,-3.41,-39.0306,Hotel Vento Brasil
211,Hervey Bay,AU,72.03,overcast clouds,-25.2986,152.8535,Shelly Bay Resort
212,Labuhan,ID,78.66,heavy intensity rain,-6.8844,112.2051,DoubleFAG
217,Ipswich,GB,51.06,broken clouds,52.0592,1.1555,Novotel Ipswich Centre
218,Dicabisagan,PH,72.5,scattered clouds,17.0818,122.4157,Nancy Montanes Bernardo
219,Jardim,BR,79.93,overcast clouds,-21.4803,-56.1381,Estancia Hotel - Jardim MS
220,Avarua,CK,78.85,few clouds,-21.2078,-159.775,Paradise Inn
223,Marrakesh,MA,77.07,broken clouds,31.6315,-8.0083,Novotel Marrakech Hivernage
225,Witu,KE,82.56,overcast clouds,-2.3889,40.4382,
226,Porbandar,IN,67.98,smoke,21.6422,69.6093,Lords Inn Porbandar
227,Port Hardy,CA,41.76,light intensity drizzle,50.6996,-127.4199,Airport Inn-Port Hardy
228,Victoria,HK,58.24,overcast clouds,22.2855,114.1577,Mini Hotel Central
229,Xai-Xai,MZ,83.25,clear sky,-25.0519,33.6442,Complexo da Familia
230,Ouallam,NE,87.17,few clouds,14.3188,2.0866,
234,Colgong,IN,64.69,broken clouds,25.2667,87.2167,Hotel Sachin
236,General Pico,AR,88.23,broken clouds,-35.6566,-63.7568,Euskadi Hotel
238,Vila,PT,51.75,overcast clouds,42.0304,-8.1588,Hotel Castrum Villae by Walk Hotels
242,Rock Sound,BS,73.71,overcast clouds,24.9,-76.2,Pink Corral Bay Property
244,Caravelas,BR,86.4,scattered clouds,-17.7125,-39.2481,Pousada dos Navegantes
245,Butaritari,KI,80.62,light rain,3.0707,172.7902,Isles Sunset Lodge
246,Broken Hill,AU,65.91,clear sky,-31.95,141.4333,Royal Exchange Hotel
250,Makakilo City,US,71.92,clear sky,21.3469,-158.0858,Marriott's Ko Olina Beach Club
252,Grand Gaube,MU,81.0,light rain,-20.0064,57.6608,Veranda Paul et Virginie Hotel & Spa
253,Key West,US,78.01,scattered clouds,24.5557,-81.7826,Fairfield Inn & Suites by Marriott Key West
254,Guerrero Negro,MX,54.41,clear sky,27.9769,-114.0611,"Casa Laguna, Bed & Breakfast"
255,Puri,IN,72.12,clear sky,19.8,85.85,OYO 1577 Hotel Shree Hari Grand
256,Edd,ER,84.25,overcast clouds,13.9297,41.6925,
258,Ugoofaaru,MV,81.23,clear sky,5.6667,73.0,Ungoofaaru Inn
262,Nelson Bay,AU,68.05,overcast clouds,-32.7167,152.15,Mantra Nelson Bay
263,Rawson,AR,78.39,scattered clouds,-43.3002,-65.1023,Hosteria Sampedro
264,Gobabis,,78.33,overcast clouds,-22.45,18.9667,Goba Lodge
265,Bintulu,MY,77.41,few clouds,3.1667,113.0333,900 Boutique INN
267,Brigantine,US,45.03,light rain,39.4101,-74.3646,Legacy Vacation Resorts - Brigantine Beach
268,Vila Velha,BR,78.75,broken clouds,-20.3297,-40.2925,Quality Suites Vila Velha
269,Bilma,NE,69.46,clear sky,18.6853,12.9164,Expeditions Ténére voyages
270,Comodoro Rivadavia,AR,73.26,scattered clouds,-45.8667,-67.5,Austral Hotel
274,Bengkulu,ID,76.51,overcast clouds,-3.8004,102.2655,Grage Hotel Bengkulu
280,Antequera,ES,69.39,broken clouds,37.0194,-4.5612,Convento de la Magdalena
282,Sinnamary,GF,80.11,scattered clouds,5.3833,-52.95,ALETHEIA Appartement Sinnamary
285,Ahipara,NZ,69.35,broken clouds,-35.1667,173.1667,Ahipara Holiday Park
286,Loharu,IN,53.8,scattered clouds,28.45,75.8167,Sainik Guest House
288,Padang,ID,75.25,overcast clouds,-0.9492,100.3543,Mercure Padang
289,Bambanglipuro,ID,63.61,overcast clouds,-7.95,110.2833,Puri Brata
290,Tampakan,PH,73.76,overcast clouds,6.4442,124.9264,AJ Hotel
293,Alcochete,PT,60.71,clear sky,38.7553,-8.9609,Alcochete 2 Rooms Terrace
295,Caconda,AO,76.01,broken clouds,-13.7333,15.0667,
296,Naze,JP,55.27,overcast clouds,28.3667,129.4833,Shishime Hotel
298,Areosa,PT,59.68,overcast clouds,41.7178,-8.8571,Hotel Flôr de Sal
300,Itoman,JP,64.42,overcast clouds,26.1247,127.6694,Southern Beach Hotel & Resort Okinawa
301,Kaoma,ZM,67.28,moderate rain,-14.7833,24.8,KAOMA AIRPORT
303,North Bend,US,40.91,clear sky,43.4065,-124.2243,Red Lion Hotel Coos Bay
304,Timaru,NZ,57.07,overcast clouds,-44.4,171.25,The Grosvenor
305,Adrar,MR,80.22,clear sky,20.5022,-10.0711,
306,Ovalle,CL,78.75,clear sky,-30.5983,-71.2003,Hotel Altos de Tuqui
307,Akyab,MM,69.37,clear sky,20.15,92.9,Hotel Memory
308,Cockburn Town,TC,76.96,scattered clouds,21.4612,-71.1419,Osprey Beach Hotel
309,General Roca,AR,84.6,scattered clouds,-39.0333,-67.5833,Hotel y Casino del Río General Roca
310,Sungairaya,ID,76.68,moderate rain,0.7,108.9,Rumah Kuku Moimoi Shelly
313,Madimba,TZ,81.16,scattered clouds,-10.4,40.3333,
314,La Romana,DO,80.96,scattered clouds,18.4273,-68.9728,Casa de Campo Resort and Villas
316,Bathsheba,BB,84.81,scattered clouds,13.2167,-59.5167,Atlantis Hotel
317,Ulladulla,AU,60.1,broken clouds,-35.35,150.4667,Sandpiper Motel
318,Kasongo,CD,71.69,overcast clouds,-4.45,26.6667,Guest Hôtel
319,Abeche,TD,80.53,clear sky,13.8292,20.8324,Assaleh Hamdan Haroune
320,Cabo San Lucas,MX,65.61,clear sky,22.8909,-109.9124,Hotel Tesoro Los Cabos
321,Saint-Francois,FR,50.41,clear sky,46.4154,3.9054,Manoir Du Bonheur
323,Poum,NC,81.1,light rain,-20.2333,164.0167,
325,Belmonte,BR,86.0,scattered clouds,-15.8631,-38.8828,Pousada Monte Carmelo O Pão
326,Muswellbrook,AU,60.24,overcast clouds,-32.2667,150.9,Wayfarer Motel
327,Salalah,OM,77.09,few clouds,17.0151,54.0924,"HAMDAN PLAZA HOTEL SALALAH, an HTG Hotel"
328,Krosno Odrzanskie,PL,42.82,light rain,52.0549,15.0988,Noclegi Krosno Odrzańskie
333,Mao,ES,57.76,scattered clouds,39.8885,4.2658,ARTIEM Capri
335,Alice Springs,AU,62.15,overcast clouds,-23.7,133.8833,Desert Palms Alice Springs
336,Shingu,JP,43.92,overcast clouds,33.7333,135.9833,Shingu UI Hotel
339,Cururupu,BR,86.29,overcast clouds,-1.8283,-44.8683,POUSADA TRAVÉS'CIA
340,Taltal,CL,71.76,clear sky,-25.4,-70.4833,Residencial Karime
341,Cumana,VE,89.69,clear sky,10.4635,-64.1775,Posada Acuarela Los Roques
342,Rabo De Peixe,PT,66.27,few clouds,37.8,-25.5833,Quinta das Giestas
345,Raymond,US,42.58,light rain,43.9015,-70.4703,Migis Lodge at Sebago Lake
347,Ahuimanu,US,73.11,clear sky,21.4447,-157.8378,Paradise Bay Resort
352,Touros,BR,88.7,broken clouds,-5.1989,-35.4608,INN NEW HORIZON
354,Lebu,CL,64.27,overcast clouds,-37.6167,-73.65,Hostal Las Lilas
355,Mount Isa,AU,76.77,overcast clouds,-20.7333,139.5,ibis Styles Mt Isa Verona
357,Road Town,VG,82.44,few clouds,18.4167,-64.6167,"ZINGARA 76ft Catamaran, full crew-all included"
361,Tabou,CI,84.83,clear sky,4.423,-7.3528,hotêl doufoulougou
363,Qiyang,CN,40.44,overcast clouds,26.5911,111.8474,鑫利大酒店
369,Ambulu,ID,76.3,overcast clouds,-8.345,113.6058,Hotel Ambulu Jember
370,Santa Marta,CO,87.89,clear sky,11.2408,-74.199,Casa de Isabella
371,Tabas,IR,51.4,scattered clouds,33.5959,56.9244,شرکت معماری مهراز شایگان آراد
372,Hualmay,PE,75.43,overcast clouds,-11.0964,-77.6139,Hotel Villa Kitzia Huacho
376,Buraydah,SA,75.65,clear sky,26.326,43.975,فندق راحة السلام
377,Mwinilunga,ZM,67.24,moderate rain,-11.7358,24.4293,Kwakuwahi Lodge
379,San Luis,AR,86.07,clear sky,-33.295,-66.3356,Huarpes Hotel
380,Conceicao Do Araguaia,BR,89.22,clear sky,-8.2578,-49.2647,Tarumã Tropical Hotel
381,Bereda,ES,58.14,overcast clouds,43.2686,-7.5406,Pazo de Verdes
382,Pumiao,CN,50.4,clear sky,22.75,108.4833,Mushang Boutique Hotel
383,Mogadishu,SO,78.89,broken clouds,2.0371,45.3438,Hotel Juba
384,Miri,MY,78.94,scattered clouds,4.4148,114.0089,"Mega Hotel, Miri"
385,Gat,IL,59.92,scattered clouds,31.61,34.7642,OlusHome
386,San Policarpo,PH,79.0,overcast clouds,12.1791,125.5072,Agapita M. Nicart
388,Kishangarh,IN,57.33,clear sky,26.5667,74.8667,Royal Heritage
389,Tombouctou,ML,81.57,clear sky,20.0,-3.0,
391,Muncar,ID,75.63,broken clouds,-8.4333,114.3333,Zaky Homestay
397,Tiarei,PF,78.82,clear sky,-17.5333,-149.3333,Le Rocher de Tahiti
398,Esperance,AU,64.24,clear sky,-33.8667,121.9,Hospitality Esperance
399,Richards Bay,ZA,86.36,clear sky,-28.783,32.0377,BON Hotel Waterfront Richards Bay
401,Dunedin,NZ,54.81,moderate rain,-45.8742,170.5036,Scenic Hotel Southern Cross
402,Sakakah,SA,71.17,broken clouds,29.9697,40.2064,Fakhamat Al Orjoana Apartment
403,Torit,SS,83.97,overcast clouds,4.4133,32.5678,Diplomat Guest House
404,La Carolina,ES,64.22,overcast clouds,38.2756,-3.6153,NH La Perdiz
405,Kaka,TM,52.0,few clouds,37.3482,59.6143,
407,Tutoia,BR,89.58,broken clouds,-2.7619,-42.2744,Pousada Guará's
410,Visnes,NO,44.82,fog,59.3556,5.2242,Park Inn Haugesund Airport
412,Sri Aman,MY,77.09,overcast clouds,1.2376,111.4621,Seri Simanggang Hotel
414,Upington,ZA,86.38,few clouds,-28.4478,21.2561,River Place Manor
415,Tura,IN,58.6,few clouds,25.5198,90.2201,Hotel RIKMAN Continental
416,Waipawa,NZ,68.63,overcast clouds,-41.4122,175.5153,Tora Coastal Walk
417,Marzuq,YE,68.07,clear sky,14.4,46.4667,
418,Bolobo,CD,78.1,overcast clouds,-2.1667,16.2333,Hotel de Stephen
419,Champerico,GT,85.35,clear sky,14.3,-91.9167,"Hotel y restaurante ""El Diamante"""
420,Samana,DO,75.42,light rain,19.2056,-69.3369,The Bannister - Hotel & Yacht Club
421,Fukue,JP,45.7,overcast clouds,32.6881,128.8419,Goto Guesthouse Utojuku & SA Car Rental
422,Jalu,LY,59.29,scattered clouds,29.0331,21.5482,صاحبة الفخامة
424,Kalaleh,IR,58.6,clear sky,37.3807,55.4916,عطر و ادکلن پارسیس
426,Gariche,PA,86.09,scattered clouds,8.485,-82.7664,Johnson santamaría
427,Kupang,ID,78.89,overcast clouds,-10.1667,123.5833,Hotel On The Rock by Prasanthi
429,San Jeronimo,PE,59.94,broken clouds,-11.9472,-75.2829,Tuki Llajta Pueblo Bonito Eco Lodge
431,Bandarbeyla,SO,76.37,clear sky,9.4942,50.8122,JABIR HOTEL
432,Taoudenni,ML,77.88,clear sky,22.6783,-3.9836,
433,Grootfontein,,81.97,scattered clouds,-19.5667,18.1167,Meteor Travel Inn
436,Auki,SB,77.36,overcast clouds,-8.7676,160.7034,Auki Motel
437,Flinders,AU,64.2,overcast clouds,-34.5833,150.8552,Shellharbour Resort & Conference Centre
438,Yenagoa,NG,84.87,light rain,4.9247,6.2642,Aridolf Resort Wellness and Spa
439,Grafton,US,44.6,overcast clouds,42.207,-71.6856,The Grafton Inn
440,Viedma,AR,88.32,clear sky,-40.8135,-62.9967,Hotel Cristal
441,Sao Joao Da Barra,BR,78.89,light rain,-21.6403,-41.0511,Pousada Porto De Canoas
442,Miandrivazo,MG,85.96,overcast clouds,-19.5167,45.4667,Hôtel Arc En Ciel Miandrivazo
443,Nampula,MZ,89.55,broken clouds,-15.1165,39.2666,BUTIK Hotel
444,Banda Aceh,ID,79.2,overcast clouds,5.5577,95.3222,Sulthan Hotel International
445,Khani,GE,45.97,scattered clouds,41.9563,42.9566,კურორტი ზეკარი/Resort Zekari
446,Antofagasta,CL,73.22,few clouds,-23.65,-70.4,"Holiday Inn Express Antofagasta, an IHG Hotel"
448,Buncrana,IE,49.82,overcast clouds,55.1333,-7.45,Inishowen Gateway Hotel
449,Bull Savanna,JM,80.01,clear sky,17.8868,-77.5902,Big Red's
451,Luis Correia,BR,89.6,few clouds,-2.8792,-41.6669,Hotel Amarração
453,San Joaquin,US,46.24,clear sky,37.9333,-121.3011,University Plaza Waterfront Hotel
456,Caluquembe,AO,75.65,scattered clouds,-13.7833,14.6833,Hotel Kalukembe
457,Vao,NC,79.39,overcast clouds,-22.6667,167.4833,Hotel Kou-Bugny
458,Pontianak,ID,78.78,haze,-0.0333,109.3333,Aston Pontianak Hotel & Convention Center
460,Saurimo,AO,65.34,light rain,-9.6608,20.3916,Hotel Kawissa Saurimo
461,Inyonga,TZ,68.95,moderate rain,-6.7167,32.0667,Eden Rock Lodge
462,Makambako,TZ,63.77,light rain,-8.8453,34.823,Viva Lwid Lodge
463,Guanay,BO,88.45,overcast clouds,-15.4975,-67.8797,Hotel Ritzy
464,Manaure,CO,84.31,scattered clouds,11.7751,-72.4445,Hotel Palaaima
466,Westport,US,44.17,light rain,41.1415,-73.3579,The Westport Inn
467,Wald-Michelbach,DE,47.48,overcast clouds,49.57,8.8317,Birkenhof
468,Itarema,BR,86.59,overcast clouds,-2.9248,-39.9167,"Sea Lounge! Bar, Club & Restaurant"
469,Busembatia,UG,84.25,overcast clouds,0.7697,33.6131,ROMA GUEST HOUSE
470,Hambantota,LK,79.14,few clouds,6.1241,81.1185,Bungalow 63
471,Rio Gallegos,AR,48.25,overcast clouds,-51.6226,-69.2181,Hotel Santa Cruz
472,Abu Dhabi,AE,71.71,clear sky,24.4667,54.3667,Ramee Garden Hotel Apartments
473,Puerto Maldonado,PE,86.4,scattered clouds,-12.6,-69.1833,Wasai Hotel
475,Portland,US,44.26,broken clouds,45.5234,-122.6762,Embassy Suites by Hilton Portland Downtown
477,Kloulklubed,PW,81.1,overcast clouds,7.0419,134.2556,Storyboard Beach Resort
478,Thinadhoo,MV,82.38,overcast clouds,0.5333,72.9333,
479,Inongo,CD,76.84,overcast clouds,-1.95,18.2667,Hotel Du Lac
481,Bowen,AU,75.42,light rain,-20.0167,148.2333,Castle Motor Lodge Motel
482,Faya,SA,64.51,few clouds,18.3851,42.4509,املاك خالد الشعشوع
483,Coruripe,BR,87.22,overcast clouds,-10.1256,-36.1756,Pousada e Hotel Litoral Sul
484,Bardiyah,LY,54.01,overcast clouds,31.7561,25.0865,بورتو بردية
486,Lethem,GY,80.65,broken clouds,3.3803,-59.7968,Savannah Inn
487,Camocim,BR,88.3,overcast clouds,-2.9022,-40.8411,Ilha Praia Hotel
492,Mokhotlong,LS,64.8,light rain,-29.2894,29.0675,Tsabi's Guest House
493,Dingle,PH,74.16,broken clouds,10.9995,122.6711,SEGAYA PROPERTY
494,Cayenne,GF,82.44,broken clouds,4.9333,-52.3333,Hôtel Le Dronmi
495,La Libertad,EC,82.06,few clouds,-2.2333,-80.9,Playa Canela Hotel Boutique
496,Abha,SA,64.22,few clouds,18.2164,42.5053,Abha Hotel
497,Chadiza,ZM,72.55,light rain,-14.0678,32.4392,Sankhani Guest House
498,Bagado,CO,74.55,broken clouds,5.4116,-76.4152,Hotel San Jose
501,Divnomorskoye,RU,45.25,overcast clouds,44.5011,38.1353,Primorskiy
502,Bara,NG,87.37,clear sky,10.3744,10.7288,
503,Kimbe,PG,75.49,heavy intensity rain,-5.5502,150.1429,Kimbe Bay Hotel
504,Whitianga,NZ,69.03,overcast clouds,-36.8333,175.7,Beachside Resort Whitianga
505,Namatanai,PG,78.8,overcast clouds,-3.6667,152.4333,Seagulls Inn Namatani
506,Pokhara,NP,53.01,overcast clouds,28.2333,83.9833,Butterfly Lodge
507,Kutum,SD,76.95,scattered clouds,14.2,24.6667,Dibbo areaمنطقة دبو
508,Jutai,BR,78.66,overcast clouds,-5.1833,-68.9,
509,Amapa,BR,78.64,overcast clouds,1.0,-52.0,
510,Umm Lajj,SA,71.22,clear sky,25.0213,37.2685,Moon light Furnished Units
511,Quatre Cocos,MU,80.71,moderate rain,-20.2078,57.7625,Sunrise Attitude Hotel
512,Maragogi,BR,86.25,overcast clouds,-9.0122,-35.2225,Salinas do Maragogi All Inclusive Resort
514,Bhanvad,IN,67.44,clear sky,21.9264,69.7736,Mahalaxmi farshan
516,Norsup,VU,80.47,overcast clouds,-16.0667,167.3833,Nabelchel Bungalows
517,Yeppoon,AU,76.78,overcast clouds,-23.1333,150.7333,Villa Mar Colina
519,Pachino,IT,62.64,clear sky,36.7186,15.0907,Pietra Bianca B&B
520,Wailuku,US,69.96,clear sky,20.8911,-156.5047,Maui Beach Hotel
521,New Glasgow,CA,44.78,overcast clouds,45.5834,-62.6486,"Holiday Inn Express Stellarton-New Glasgow, an IHG Hotel"
522,La Paz,BO,55.38,broken clouds,-16.5,-68.15,Hotel Sagarnaga
523,Boa Vista,BR,85.98,broken clouds,2.8197,-60.6733,Aipana Plaza Hotel
526,Rancho Palos Verdes,US,57.67,clear sky,33.7445,-118.387,Terranea Resort
529,Sorong,ID,80.76,overcast clouds,-0.8833,131.25,Waigo Splash Hotel
531,Haifa,IL,63.54,clear sky,32.8156,34.9892,Dan Panorama Haifa Hotel
532,Ukiah,US,49.01,overcast clouds,39.1502,-123.2078,Hampton Inn Ukiah
533,Wana,PK,43.86,clear sky,32.2989,69.5725,Rest House at Wana Camp
536,Marsa Matruh,EG,56.68,overcast clouds,31.3525,27.2453,Beau Site
538,Tamalin,MX,73.02,few clouds,21.35,-97.8,Taller Tony
540,Pandan,PH,76.75,overcast clouds,14.0453,124.1694,Bonifacio Lodge
541,Maningrida,AU,77.74,broken clouds,-12.0667,134.2667,Dhukurrdji Lodge
543,Sharjah,AE,73.38,clear sky,25.3573,55.4033,Swiss Belhotel Sharjah
544,Mangrol,IN,69.78,few clouds,21.1167,70.1167,Hotel The Royal Honours
545,Rawah,IQ,55.9,broken clouds,34.4816,41.9093,
547,Mahibadhoo,MV,82.2,clear sky,3.7833,72.9667,Omadhoo Inn
549,Urucara,BR,89.4,broken clouds,-2.5364,-57.76,Pousada Maria Bonita
550,Illapel,CL,78.46,clear sky,-31.6308,-71.1653,Hotel Londres
552,Aktau,KZ,50.58,clear sky,43.65,51.2,Silk Way Hotel
555,Huarmey,PE,75.7,overcast clouds,-10.0681,-78.1522,Hotel Miramar
558,Pochutla,MX,80.82,clear sky,15.7432,-96.4661,Hotel Posada San Jose
559,Saint-Pierre,RE,78.44,light rain,-21.3393,55.4781,Lindsey Hôtel
561,Margate,GB,50.97,overcast clouds,51.3813,1.3862,Premier Inn Margate hotel
562,Kisumu,KE,80.4,broken clouds,-0.1022,34.7617,Kisumu Hostel
564,Tandil,AR,66.04,moderate rain,-37.3217,-59.1332,Hostal de la Sierra Tandil
565,Azare,NG,82.98,scattered clouds,11.6765,10.1948,Mallam Ayuba Compound
566,Saldanha,ZA,73.45,broken clouds,-33.0117,17.9442,Blue Bay Lodge
568,Arlit,NE,78.39,clear sky,18.7369,7.3853,Case de Passage De la Prefecture
570,Port Lincoln,AU,61.74,few clouds,-34.7333,135.8667,Port Lincoln Hotel
571,Lorengau,PG,79.21,moderate rain,-2.0226,147.2712,Lorengau Harbourside Hotel
573,Montepuez,MZ,73.54,light rain,-13.1256,38.9997,PembaAparthotel
574,De Panne,BE,49.01,broken clouds,51.0792,2.5917,Hotel aan Zee
575,Goundam,ML,86.31,broken clouds,16.4145,-3.6708,
576,Cabedelo,BR,86.67,overcast clouds,-6.9811,-34.8339,Hotel Pigalle
578,Cristalina,BR,77.67,broken clouds,-16.7686,-47.6136,HOTEL TOPAZIO
579,Cairns,AU,80.55,light rain,-16.9167,145.7667,Mantra Trilogy Cairns
580,Hainburg,DE,49.48,overcast clouds,50.0716,8.9524,Best Western Premier Hotel Villa Stokkum
582,Cabra,ES,72.18,broken clouds,37.4725,-4.4421,MS Fuente Las Piedras
583,Gorey,IE,54.1,overcast clouds,52.6747,-6.2925,Amber Springs Hotel and Health Spa
586,Sohag,EG,59.86,clear sky,26.557,31.6948,Civil Registry - Sohag 1
587,Ocampo,MX,58.93,clear sky,21.65,-101.5,Hotel Estancia del Vaquero
588,Carmo Do Cajuru,BR,77.95,light rain,-20.1842,-44.7711,Hotel Jesus Leão
591,Simpang,ID,75.18,scattered clouds,-1.2667,104.0833,
592,Shimoda,JP,42.1,overcast clouds,34.6667,138.95,Shimoda Tokyu Hotel
594,Jibuti,DJ,76.42,clear sky,11.5,42.5,Orchid Main Camp Goubet
595,Dubti,ET,86.92,overcast clouds,11.7361,41.0853,degu Shiferaw
596,Freeport,US,45.18,fog,40.6576,-73.5832,The Freeport Inn and Marina
597,Madras,IN,78.96,few clouds,13.0878,80.2785,City home
603,Itigi,TZ,67.41,light rain,-5.7,34.4833,Hostel San Sebastiano
604,Tacna,PE,71.8,clear sky,-18.0056,-70.2483,Hotel Colón Inn
605,Gamba,GA,76.44,overcast clouds,-2.65,10.0,
606,Catamarca,AR,85.77,clear sky,-28.4696,-65.7852,Amerian Catamarca Park Hotel
607,Semnan,IR,44.92,overcast clouds,35.5729,53.3971,Semnan Tourist Hotel
608,Puerto Madryn,AR,81.23,few clouds,-42.7692,-65.0385,Hotel Tolosa
610,Merauke,ID,79.79,overcast clouds,-8.4667,140.3333,
611,Mmabatho,ZA,85.96,few clouds,-25.85,25.6333,Mahikeng Guest Apartments
613,Sumter,US,77.14,overcast clouds,28.7086,-82.0831,Paradise Oaks RV Resort
615,Sulangan,PH,79.86,overcast clouds,11.1373,123.7228,Maia's Beach Resort
616,George,ZA,67.55,broken clouds,-33.963,22.4617,Protea Hotel by Marriott George King George
617,Guaratinga,BR,83.07,few clouds,-16.5667,-39.5667,Hotel Caraíva
619,Phek,IN,43.43,overcast clouds,25.6667,94.5,Prayer Centre
622,Nguru,NG,80.71,clear sky,12.8791,10.4526,Government Lodge
623,Praia Da Vitoria,PT,62.85,scattered clouds,38.7333,-27.0667,Hotel Branco I
624,Peniche,PT,60.89,overcast clouds,39.3558,-9.3811,Hotel Star inn Peniche
625,Mabaruma,GY,82.4,scattered clouds,8.2,-59.7833,Monty Brooms Guest House
627,Ipixuna,BR,84.15,overcast clouds,-1.7625,-48.8043,Casa da Oscarina
628,Eureka,US,47.19,overcast clouds,40.8021,-124.1637,Eureka Inn Trademark By Wyndham
630,Alugan,PH,78.53,overcast clouds,12.2188,125.4808,JM Lodge
633,Pemangkat,ID,77.22,overcast clouds,1.1667,108.9667,Ramah Kost KITA
634,Villamontes,BO,89.04,few clouds,-21.25,-63.5,Hotel Raldes
636,Wagar,SD,88.88,overcast clouds,16.1525,36.2032,
639,Kieta,PG,77.92,moderate rain,-6.2167,155.6333,Uruna Bay Retreat
640,Atar,MR,87.62,clear sky,20.5169,-13.0499,Oumou Elghoura
641,El Sauzal,MX,50.95,clear sky,31.9,-116.6833,Hotel Las Rosas & Spa
642,Stribro,CZ,42.67,overcast clouds,49.7529,13.0041,Hotel Alexander
644,Dumai,ID,74.7,broken clouds,1.6833,101.45,Grand Zuri Dumai
647,Inhambane,MZ,81.48,clear sky,-23.865,35.3833,Oceano
650,Pacific Grove,US,54.28,clear sky,36.6177,-121.9166,Lovers Point Inn
651,Kavaratti,IN,79.86,clear sky,10.5669,72.642,Hotels in Lakshadweep Islands
655,Avera,US,68.72,overcast clouds,33.194,-82.5271,
658,Danjiangkou,CN,42.04,clear sky,32.5428,111.5086,Dongsheng Guesthouse
660,Luanda,AO,78.8,few clouds,-8.8368,13.2343,Hotel Fórum
661,Riohacha,CO,84.31,broken clouds,11.5444,-72.9072,Hotel Taroa
664,Nisia Floresta,BR,89.98,overcast clouds,-6.0911,-35.2086,Rancho Crepusculo
665,Lakes Entrance,AU,55.17,broken clouds,-37.8811,147.981,The Esplanade Resort & Spa
666,Yulara,AU,67.84,broken clouds,-25.2406,130.9889,Desert Gardens Hotel - Ayers Rock Resort
669,Celestun,MX,81.84,clear sky,20.8667,-90.4,Posada Lilia
670,Lashio,MM,50.22,clear sky,22.9333,97.75,Hotel CF Lashio - Burmese Only
671,Roald,NO,43.72,light rain,62.5833,6.1333,Flem Cabins
672,Choix,MX,60.21,scattered clouds,26.7092,-108.3219,Hotel Montesclaros
673,Saint-Georges,GD,83.88,scattered clouds,12.0564,-61.7485,Radisson Grenada Beach Resort
674,Buala,SB,79.77,light rain,-8.145,159.5921,Maringe Lagoon Lodge
675,Port Washington,US,44.8,overcast clouds,40.8257,-73.6982,The Andrew Hotel
676,Hermiston,US,44.11,overcast clouds,45.8404,-119.2895,Oxford Suites Hermiston
677,Pressbaum,AT,45.79,broken clouds,48.176,16.0477,Hotel Wiental Betriebs Gmbh
678,Tual,ID,83.12,broken clouds,-5.6667,132.75,Grand Vilia Hotel
679,Lagunas,PE,81.05,overcast clouds,-5.2269,-75.6753,Hospedaje Eco
682,Mount Kisco,US,43.41,fog,41.2043,-73.7271,Crabtree's Kittle House Restaurant & Inn
683,Biograd Na Moru,HR,52.5,clear sky,43.9433,15.4519,Villa Maimare
684,Salobrena,ES,75.9,overcast clouds,36.7428,-3.5872,Impressive Playa Granada Golf
686,Maloy,NO,43.74,light rain,61.9353,5.1136,Torget Hotell
689,Aswan,EG,66.74,clear sky,24.0934,32.907,Nuba Nile
690,Daru,PG,77.76,overcast clouds,-9.0763,143.2092,Daru Lodge
691,Kathua,IN,50.86,light rain,32.3667,75.5167,Avalon Residency
694,Santa Engracia,ES,59.61,overcast clouds,41.9406,-1.3245,Casa rural Santa Engracia
695,Marsh Harbour,BS,74.01,overcast clouds,26.5412,-77.0636,Abaco Beach Resort
698,Tessalit,ML,79.74,few clouds,20.1986,1.0114,
699,Fort Pierce,US,79.02,few clouds,27.4467,-80.3256,Hutchinson Island Plaza Hotel & Suites
700,Bloomsburg,US,41.09,moderate rain,41.0037,-76.4549,Hampton Inn Bloomsburg
701,Manta,EC,82.18,overcast clouds,-0.95,-80.7333,Balandra Hotel
703,Parauna,BR,84.34,scattered clouds,-16.9478,-50.4486,Hotel Serras de Paraúna
704,Posse,BR,85.69,overcast clouds,-14.0931,-46.3694,Pousada das Palmeiras
